[
  { "name": "Electronic City Phase II", "lat": 12.8452, "lng": 77.6605 },
  { "name": "Chikka Tirupathi", "lat": 12.8941, "lng": 77.8722 },
  { "name": "Uttarahalli", "lat": 12.8968, "lng": 77.5295 },
  { "name": "Lingadheeranahalli", "lat": 12.9190, "lng": 77.5142 },
  { "name": "Kothanur", "lat": 13.0715, "lng": 77.6412 },
  { "name": "Whitefield", "lat": 12.9698, "lng": 77.7499 },
  { "name": "Old Airport Road", "lat": 12.9612, "lng": 77.6486 },
  { "name": "Rajaji Nagar", "lat": 12.9916, "lng": 77.5545 },
  { "name": "Marathahalli", "lat": 12.9569, "lng": 77.7011 },
  { "name": "Gandhi Bazar", "lat": 12.9429, "lng": 77.5711 }
]
